{
  "anchorage": {"lat": "61.2181", "lon": "-149.9003", "name": "Anchorage" },
  "antarctica": { "lat": "-80.3625", "lon": "20.563", "name": "Antarctica" },
  "atlanta": { "lat": "33.7490", "lon": "-84.3880", "name": "Atlanta" },
  "auckland": { "lat": "-36.8509", "lon": "174.7645", "name": "Auckland" },
  "bangalore": { "lat": "12.9716", "lon": "77.5946", "name": "Bangalore" },
  "beijing": {"lat": "39.9042", "lon": "116.4074", "name": "Beijing" },
  "berlin": {"lat": "52.5200", "lon": "13.4050", "name": "Berlin" },
  "bogota": {"lat": "4.7110", "lon": "-74.0721", "name": "Bogota" },
  "buenos_aires": {"lat": "-34.6037", "lon": "-58.3816", "name": "Buenos Aires" },
  "cairo"  : { "lat": "30.0444", "lon": "31.2357", "name": "Cairo" },
  "chengdu"  : { "lat": "30.5723", "lon": "104.0665", "name": "Chengdu" },
  "cherrapunji"  : { "lat": "25.2702", "lon": "91.7323", "name": "Cherrapunji" },
  "chicago"  : { "lat": "41.8781", "lon": "-87.6298", "name": "Chicago" },
  "christchurch"  : { "lat": "-43.5320", "lon": "172.6306", "name": "Christchurch" },
  "death_valley"  : { "lat": "36.4567", "lon": "-116.8656", "name": "Death Valley" },
  "greenland": { "lat": "74.7277", "lon": "-41.345", "name": "Greenland" },
  "hammerfest": { "lat": "70.6634", "lon": "23.6820", "name": "Hammerfest" },
  "hong_kong"  : { "lat": "22.3193", "lon": "114.1694", "name": "Hong Kong" },
  "istanbul"  : { "lat": "41.0082", "lon": "28.9784", "name": "Istanbul" },
  "jakarta"  : { "lat": "-6.2088", "lon": "106.8456", "name": "Jakarta" },
  "johannesburg"  : { "lat": "-26.2041", "lon": "28.0473", "name": "Johannesburg" },
  "kinshasa"  : { "lat": "-4.4419", "lon": "15.2663", "name": "Kinshasa" },
  "kourou"  : { "lat": "5.1611", "lon": "-52.6493", "name": "Kourou" },
  "lagos"  : { "lat": "6.5244", "lon": "3.3792", "name": "Lagos" },
  "la_paz"  : { "lat": "-16.4897", "lon": "-68.1193", "name": "La Paz" },
  "lima"  : { "lat": "-12.0464", "lon": "-77.0428", "name": "Lima" },
  "london"  : { "lat": "51.5074", "lon": "0.1278", "name": "London" },
  "los_angeles"  : { "lat": "34.0522", "lon": "-118.2347", "name": "Los Angeles" },
  "madrid"  : { "lat": "40.4168", "lon": "-3.7038", "name": "Madrid" },
  "mexico_city"  : { "lat": "19.4326", "lon": "-99.1332", "name": "Mexico City" },
  "milan"  : { "lat": "45.4642", "lon": "9.1900", "name": "Milan" },
  "moscow"  : { "lat": "55.7558", "lon": "37.6173", "name": "Moscow" },
  "mumbai"  : { "lat": "19.0760", "lon": "72.8777", "name": "Mumbai" },
  "murmansk"  : { "lat": "68.9733", "lon": "33.0856", "name": "Murmansk" },
  "muscat"  : { "lat": "23.5880", "lon": "58.3829", "name": "Muscat" },
  "nairobi": { "lat": "-1.2921", "lon": "36.8219", "name": "Nairobi" },
  "new_york": { "lat": "40.7128", "lon": "-74.0060", "name": "New York" },
  "norilsk": { "lat": "69.3558", "lon": "88.1893", "name": "Norilsk" },
  "nur_sultan": { "lat": "51.1605", "lon": "71.4704", "name": "Nur-Sultan" },
  "ouargla": { "lat": "31.9527", "lon": "5.3335", "name": "Ouargla" },
  "paris": { "lat": "48.8566", "lon": "2.3522", "name": "Paris" },
  "port_moresby": { "lat": "-9.4438", "lon": "147.1803", "name": "Port Moresby" },
  "port_louis": { "lat": "-20.1609", "lon": "57.5012", "name": "Port Louis" },
  "punta_arenas": { "lat": "-53.1638", "lon": "-70.9171", "name": "Punta Arenas" },
  "santiago": { "lat": "-33.4489", "lon": "-70.6693", "name": "Santiago"},
  "sao_paulo": { "lat": "-23.5505", "lon": "-46.6333", "name": "Sao Paulo"},
  "seoul": { "lat": "37.5665", "lon": "126.9780", "name": "Seoul"},
  "shanghai": { "lat": "31.2304", "lon": "121.4737", "name": "Shanghai"},
  "singapore": { "lat": "1.3152", "lon": "103.8198", "name": "Singapore"},
  "sydney": { "lat": "-33.8688", "lon": "151.2093", "name": "Sydney"},
  "tokyo" : { "lat": "35.6762", "lon": "139.6503", "name": "Tokyo" },
  "ulaanbaatar" : { "lat": "47.8864", "lon": "106.9057", "name": "Ulaanbaatar" },
  "yakutsk" : { "lat": "62.0397", "lon": "129.7422", "name": "Yakutsk" }
}
